{
    "topics": {
        "home": {},
        "wheels-tires": {},
        "accessories": {},
        "electronics": {
            "remote-start": {
                "path": "remote-start",
                "name": "Remote Car Starters",
                "h1": "Professionally installed remote car starters",
                "h2": "Hate cold winter mornings? Get your car toasty warm from the comfort of your own home with professionally installed remote car starters from Banin's Auto Supply.",
                "list_header": "Remote car starters:",
                "list_items": [
                    "Defrost your windows",
                    "Warm up your engine",
                    "Make your commute more comforable",
                    "All from your iOS or Android phone!"
                ],
                "left_header": "Remote Car Starters",
                "left_contents": "Directed Electronics Viper remote car starters professionally installed. Available with optional GPS tracking and Smart Start feature allows activation and monitoring from your cell phone.",
                "right_header": "More Information",
                "right_contents": "We professionally install Viper, Avital, Python, Clifford, and Automate brand remote start systems. Great as a Christmas gift for that special someone!"
            },
            "car-alarms": {
                "path": "car-alarms",
                "name": "Car & Truck Alarms",
                "h1": "Professionally installed car and truck alarms",
                "h2": "Car alarms professionally installed available with remote car starter, GPS Tracking and Smart Start which lets you activate and monitor through your smart phone.",
                "list_header": "Car Alarms featuring:",
                "list_items": [
                    "Keyless Entry",
                    "GPS Tracking",
                    "Remote car starers",
                    "Smart phone monitoring"
                ],
                "left_header": "More Info",
                "left_contents": "Protect your vehicle from theft with professionally installed car alarms at Banin's Auto. Track your car's location with built-in GPS tracking integrated directly into your iOS or Android phone."
            },
            "radios": {
                "path": "radios",
                "name": "Car &amp; Truck Radios",
                "h1": "Professionally installed car and truck radios",
                "h2": "Overhaul your car or truck with professionally installed radios at Banin's Auto. We professionally install everything from subwoofers to backup-cameras.",
                "list_header": "Car &amp; Truck radios featuring:",
                "list_items": [
                    "Replacement speakers",
                    "New audio and entertainment systems",
                    "Backup camera",
                    "Integrated navigation",
                    "Bluetooth connection",
                    "USB integration",
                    "Compatible with iOS and Android"
                ],
                "left_header": "Car &amp; Truck Radios",
                "left_contents": "Car and truck radio solutions featuring Pioneer products, and replacement speakers professionally installed, as well as new car audio and entertainment systems. Available with back up camera, navigation, Bluetooth, USB integration, and compatible with Android or Apple phones.",
                "right_header": "More Information",
                "right_contents": "Whether you're listening to Springsteen or Yung Jeezy, you need a bumpin' soundsystem. Want to blast the Thunder Road?? We won't judge. Overhaul your audio and entertainment system at Banin's."
            },
            "headlights": {
                "path": "headlights",
                "name": "LED headlights, foglights, and more",
                "h1": "Professionally installed headlights &amp; more",
                "h2": "Improve your night time visibility with ultra bright LED headlight, fog light, and driving light solutions featuring Rigid Lighting, United Lighting, and Vision X.",
                "list_header": "Headlights featuring:",
                "list_items": [
                    "LED headlights",
                    "Foglights",
                    "Driving lights",
                    "Rigid Lighting",
                    "United Lighting",
                    "Vision X"
                ],
                "left_header": "More info",
                "left_contents": "Bad nighttime vision? Light up the whole block with our ultra-bright LED headlights. We also offer professionally installed foglights, perfect for your car or truck."
            },
            "strobe-lighting": {
                "path": "strobe-lighting",
                "name": "Strobe Lighting",
                "h1": "Professionally installed strobe lighting",
                "h2": "Professionally installed emergency strobe lighting for construction vehicles as well as LED blue lights for volunteer firemen.",
                "list_header": "Perfect for:",
                "list_items": [
                    "Construction vehicles",
                    "Volunteer firemen"
                ],
                "left_header": "In a hurry?",
                "left_contents": "Let people know with professionally installed emergency strobe lighting. LED lighting also available, perfect for volunteer firemen"
            }
        },
        "gallery": {},
        "contact": {}
    },
    "locations": [
        {"state": "PA", "county": "Bucks County", "location": "Bedminster"},
        {"state": "PA", "county": "Bucks County", "location": "Bensalem"},
        {"state": "PA", "county": "Bucks County", "location": "Bridgeton"},
        {"state": "PA", "county": "Bucks County", "location": "Bristol"},
        {"state": "PA", "county": "Bucks County", "location": "Bristol"},
        {"state": "PA", "county": "Bucks County", "location": "Buckingham"},
        {"state": "PA", "county": "Bucks County", "location": "Chalfont"},
        {"state": "PA", "county": "Bucks County", "location": "Doylestown"},
        {"state": "PA", "county": "Bucks County", "location": "Doylestown"},
        {"state": "PA", "county": "Bucks County", "location": "Dublin"},
        {"state": "PA", "county": "Bucks County", "location": "Durham"},
        {"state": "PA", "county": "Bucks County", "location": "East Rockhill"},
        {"state": "PA", "county": "Bucks County", "location": "Falls"},
        {"state": "PA", "county": "Bucks County", "location": "Haycock"},
        {"state": "PA", "county": "Bucks County", "location": "Hilltown"},
        {"state": "PA", "county": "Bucks County", "location": "Hulmeville"},
        {"state": "PA", "county": "Bucks County", "location": "Ivyland"},
        {"state": "PA", "county": "Bucks County", "location": "Langhorne Manor"},
        {"state": "PA", "county": "Bucks County", "location": "Langhorne"},
        {"state": "PA", "county": "Bucks County", "location": "Lower Makefield"},
        {"state": "PA", "county": "Bucks County", "location": "Lower Southampton"},
        {"state": "PA", "county": "Bucks County", "location": "Middletown"},
        {"state": "PA", "county": "Bucks County", "location": "Milford"},
        {"state": "PA", "county": "Bucks County", "location": "Morrisville"},
        {"state": "PA", "county": "Bucks County", "location": "New Britain"},
        {"state": "PA", "county": "Bucks County", "location": "New Britain"},
        {"state": "PA", "county": "Bucks County", "location": "New Hope"},
        {"state": "PA", "county": "Bucks County", "location": "Newtown"},
        {"state": "PA", "county": "Bucks County", "location": "Newtown"},
        {"state": "PA", "county": "Bucks County", "location": "Nockamixon"},
        {"state": "PA", "county": "Bucks County", "location": "Northampton"},
        {"state": "PA", "county": "Bucks County", "location": "Penndel"},
        {"state": "PA", "county": "Bucks County", "location": "Perkasie"},
        {"state": "PA", "county": "Bucks County", "location": "Plumstead"},
        {"state": "PA", "county": "Bucks County", "location": "Quakertown"},
        {"state": "PA", "county": "Bucks County", "location": "Richland"},
        {"state": "PA", "county": "Bucks County", "location": "Richlandtown"},
        {"state": "PA", "county": "Bucks County", "location": "Riegelsville"},
        {"state": "PA", "county": "Bucks County", "location": "Sellersville"},
        {"state": "PA", "county": "Bucks County", "location": "Silverdale"},
        {"state": "PA", "county": "Bucks County", "location": "Solebury"},
        {"state": "PA", "county": "Bucks County", "location": "Springfield"},
        {"state": "PA", "county": "Bucks County", "location": "Telford"},
        {"state": "PA", "county": "Bucks County", "location": "Tinicum"},
        {"state": "PA", "county": "Bucks County", "location": "Trumbauersville"},
        {"state": "PA", "county": "Bucks County", "location": "Tullytown"},
        {"state": "PA", "county": "Bucks County", "location": "Upper Makefield"},
        {"state": "PA", "county": "Bucks County", "location": "Upper Southampton"},
        {"state": "PA", "county": "Bucks County", "location": "Warminster"},
        {"state": "PA", "county": "Bucks County", "location": "Warrington"},
        {"state": "PA", "county": "Bucks County", "location": "Warwick"},
        {"state": "PA", "county": "Bucks County", "location": "West Rockhill"},
        {"state": "PA", "county": "Bucks County", "location": "Wrightstown"},
        {"state": "PA", "county": "Bucks County", "location": "Yardley"},
        {"state": "PA", "county": "Montgomery County", "location": "Abington"},
        {"state": "PA", "county": "Montgomery County", "location": "Ambler"},
        {"state": "PA", "county": "Montgomery County", "location": "Bridgeport"},
        {"state": "PA", "county": "Montgomery County", "location": "Bryn Athyn"},
        {"state": "PA", "county": "Montgomery County", "location": "Cheltenham"},
        {"state": "PA", "county": "Montgomery County", "location": "Collegeville"},
        {"state": "PA", "county": "Montgomery County", "location": "Conshohocken"},
        {"state": "PA", "county": "Montgomery County", "location": "Douglass"},
        {"state": "PA", "county": "Montgomery County", "location": "East Greenville"},
        {"state": "PA", "county": "Montgomery County", "location": "East Norriton"},
        {"state": "PA", "county": "Montgomery County", "location": "Franconia"},
        {"state": "PA", "county": "Montgomery County", "location": "Green Lane"},
        {"state": "PA", "county": "Montgomery County", "location": "Hatboro"},
        {"state": "PA", "county": "Montgomery County", "location": "Hatfield"},
        {"state": "PA", "county": "Montgomery County", "location": "Hatfield"},
        {"state": "PA", "county": "Montgomery County", "location": "Horsham"},
        {"state": "PA", "county": "Montgomery County", "location": "Jenkintown"},
        {"state": "PA", "county": "Montgomery County", "location": "Lansdale"},
        {"state": "PA", "county": "Montgomery County", "location": "Limerick"},
        {"state": "PA", "county": "Montgomery County", "location": "Lower Frederick"},
        {"state": "PA", "county": "Montgomery County", "location": "Lower Gwynedd"},
        {"state": "PA", "county": "Montgomery County", "location": "Lower Merion"},
        {"state": "PA", "county": "Montgomery County", "location": "Lower Moreland"},
        {"state": "PA", "county": "Montgomery County", "location": "Lower Pottsgrove"},
        {"state": "PA", "county": "Montgomery County", "location": "Lower Providence"},
        {"state": "PA", "county": "Montgomery County", "location": "Lower Salford"},
        {"state": "PA", "county": "Montgomery County", "location": "Marlborough"},
        {"state": "PA", "county": "Montgomery County", "location": "Montgomery"},
        {"state": "PA", "county": "Montgomery County", "location": "Narberth"},
        {"state": "PA", "county": "Montgomery County", "location": "New Hanover"},
        {"state": "PA", "county": "Montgomery County", "location": "Norristown"},
        {"state": "PA", "county": "Montgomery County", "location": "North Wales"},
        {"state": "PA", "county": "Montgomery County", "location": "Pennsburg"},
        {"state": "PA", "county": "Montgomery County", "location": "Perkiomen"},
        {"state": "PA", "county": "Montgomery County", "location": "Plymouth"},
        {"state": "PA", "county": "Montgomery County", "location": "Pottstown"},
        {"state": "PA", "county": "Montgomery County", "location": "Red Hill"},
        {"state": "PA", "county": "Montgomery County", "location": "Rockledge"},
        {"state": "PA", "county": "Montgomery County", "location": "Royersford"},
        {"state": "PA", "county": "Montgomery County", "location": "Salford"},
        {"state": "PA", "county": "Montgomery County", "location": "Schwenksville"},
        {"state": "PA", "county": "Montgomery County", "location": "Skippack"},
        {"state": "PA", "county": "Montgomery County", "location": "Souderton"},
        {"state": "PA", "county": "Montgomery County", "location": "Springfield"},
        {"state": "PA", "county": "Montgomery County", "location": "Telford"},
        {"state": "PA", "county": "Montgomery County", "location": "Towamencin"},
        {"state": "PA", "county": "Montgomery County", "location": "Trappe"},
        {"state": "PA", "county": "Montgomery County", "location": "Upper Dublin"},
        {"state": "PA", "county": "Montgomery County", "location": "Upper Frederick"},
        {"state": "PA", "county": "Montgomery County", "location": "Upper Gwynedd"},
        {"state": "PA", "county": "Montgomery County", "location": "Upper Hanover"},
        {"state": "PA", "county": "Montgomery County", "location": "Upper Merion"},
        {"state": "PA", "county": "Montgomery County", "location": "Upper Moreland"},
        {"state": "PA", "county": "Montgomery County", "location": "Upper Pottsgrove"},
        {"state": "PA", "county": "Montgomery County", "location": "Upper Providence"},
        {"state": "PA", "county": "Montgomery County", "location": "Upper Salford"},
        {"state": "PA", "county": "Montgomery County", "location": "West Conshohocken"},
        {"state": "PA", "county": "Montgomery County", "location": "West Norriton"},
        {"state": "PA", "county": "Montgomery County", "location": "West Pottsgrove"},
        {"state": "PA", "county": "Montgomery County", "location": "Whitemarsh"},
        {"state": "PA", "county": "Montgomery County", "location": "Whitpain"},
        {"state": "PA", "county": "Montgomery County", "location": "Worcester"},
        {"state": "PA", "county": "Philadelphia", "location": "19019"},
        {"state": "PA", "county": "Philadelphia", "location": "19101"},
        {"state": "PA", "county": "Philadelphia", "location": "19102"},
        {"state": "PA", "county": "Philadelphia", "location": "19102"},
        {"state": "PA", "county": "Philadelphia", "location": "19102"},
        {"state": "PA", "county": "Philadelphia", "location": "19103"},
        {"state": "PA", "county": "Philadelphia", "location": "19103"},
        {"state": "PA", "county": "Philadelphia", "location": "19103"},
        {"state": "PA", "county": "Philadelphia", "location": "19104"},
        {"state": "PA", "county": "Philadelphia", "location": "19105"},
        {"state": "PA", "county": "Philadelphia", "location": "19106"},
        {"state": "PA", "county": "Philadelphia", "location": "19107"},
        {"state": "PA", "county": "Philadelphia", "location": "19108"},
        {"state": "PA", "county": "Philadelphia", "location": "19109"},
        {"state": "PA", "county": "Philadelphia", "location": "19110"},
        {"state": "PA", "county": "Philadelphia", "location": "19111"},
        {"state": "PA", "county": "Philadelphia", "location": "19112"},
        {"state": "PA", "county": "Philadelphia", "location": "19114"},
        {"state": "PA", "county": "Philadelphia", "location": "19115"},
        {"state": "PA", "county": "Philadelphia", "location": "19116"},
        {"state": "PA", "county": "Philadelphia", "location": "19118"},
        {"state": "PA", "county": "Philadelphia", "location": "19119"},
        {"state": "PA", "county": "Philadelphia", "location": "19120"},
        {"state": "PA", "county": "Philadelphia", "location": "19121"},
        {"state": "PA", "county": "Philadelphia", "location": "19122"},
        {"state": "PA", "county": "Philadelphia", "location": "19123"},
        {"state": "PA", "county": "Philadelphia", "location": "19124"},
        {"state": "PA", "county": "Philadelphia", "location": "19125"},
        {"state": "PA", "county": "Philadelphia", "location": "19126"},
        {"state": "PA", "county": "Philadelphia", "location": "19127"},
        {"state": "PA", "county": "Philadelphia", "location": "19127"},
        {"state": "PA", "county": "Philadelphia", "location": "19128"},
        {"state": "PA", "county": "Philadelphia", "location": "19129"},
        {"state": "PA", "county": "Philadelphia", "location": "19130"},
        {"state": "PA", "county": "Philadelphia", "location": "19131"},
        {"state": "PA", "county": "Philadelphia", "location": "19132"},
        {"state": "PA", "county": "Philadelphia", "location": "19133"},
        {"state": "PA", "county": "Philadelphia", "location": "19134"},
        {"state": "PA", "county": "Philadelphia", "location": "19135"},
        {"state": "PA", "county": "Philadelphia", "location": "19136"},
        {"state": "PA", "county": "Philadelphia", "location": "19137"},
        {"state": "PA", "county": "Philadelphia", "location": "19138"},
        {"state": "PA", "county": "Philadelphia", "location": "19139"},
        {"state": "PA", "county": "Philadelphia", "location": "19140"},
        {"state": "PA", "county": "Philadelphia", "location": "19141"},
        {"state": "PA", "county": "Philadelphia", "location": "19142"},
        {"state": "PA", "county": "Philadelphia", "location": "19143"},
        {"state": "PA", "county": "Philadelphia", "location": "19144"},
        {"state": "PA", "county": "Philadelphia", "location": "19145"},
        {"state": "PA", "county": "Philadelphia", "location": "19146"},
        {"state": "PA", "county": "Philadelphia", "location": "19147"},
        {"state": "PA", "county": "Philadelphia", "location": "19148"},
        {"state": "PA", "county": "Philadelphia", "location": "19149"},
        {"state": "PA", "county": "Philadelphia", "location": "19150"},
        {"state": "PA", "county": "Philadelphia", "location": "19151"},
        {"state": "PA", "county": "Philadelphia", "location": "19151"},
        {"state": "PA", "county": "Philadelphia", "location": "19152"},
        {"state": "PA", "county": "Philadelphia", "location": "19153"},
        {"state": "PA", "county": "Philadelphia", "location": "19154"},
        {"state": "PA", "county": "Philadelphia", "location": "19155"},
        {"state": "PA", "county": "Philadelphia", "location": "19160"}
    ]
}
